{"tables":{"Milk_bank":{"pathToKey":{"Temperature":"Temperature","Source":"Source","Procedure_id":"Procedure_id","Time":"Time"},"pathToName":{"Temperature":"Temperature","Source":"Source","Procedure_id":"Procedure_id","Time":"Time"}},"Tea_inventory":{"pathToKey":{"Name":"Name","House_id":"House_id","Type_id":"Type_id","Loose_Leaf":"Loose_Leaf","Price_8oz":"Price_8oz","Cold":"Cold","Hot":"Hot","Price_16oz":"Price_16oz","Bags":"Bags","Price_12oz":"Price_12oz"},"pathToName":{"Name":"Name","House_id":"House_id","Type_id":"Type_id","Loose_Leaf":"Loose_Leaf","Price_8oz":"Price_8oz","Cold":"Cold","Hot":"Hot","Price_16oz":"Price_16oz","Bags":"Bags","Price_12oz":"Price_12oz"},"defaultListFile":"tables/Tea_inventory/html/Tea_inventory_list.html","defaultDetailFile":"tables/Tea_inventory/html/Tea_inventory_detail.html"},"Tea_types":{"pathToKey":{"Name":"Name","Fermented":"Fermented","Type_id":"Type_id","Origin":"Origin","Caffeinated":"Caffeinated"},"pathToName":{"Name":"Name","Fermented":"Fermented","Type_id":"Type_id","Origin":"Origin","Caffeinated":"Caffeinated"},"defaultListFile":"tables/Tea_types/html/Tea_types_list.html","defaultDetailFile":"tables/Tea_types/html/Tea_types_detail.html"},"Myna_birds":{"pathToKey":{"Temperature":"Temperature","State":"State","Day":"Day","Male_Myna_sightings":"Male_Myna_sightings","City":"City"},"pathToName":{"Temperature":"Temperature","State":"State","Day":"Day","Male_Myna_sightings":"Male_Myna_sightings","City":"City"}},"Tea_houses":{"pathToKey":{"WiFi":"WiFi","Owner":"Owner","Date_Opened":"Date_Opened","Customers":"Customers","GeoPoint":"GeoPoint","Hot":"Hot","Specialty_Type_id":"Specialty_Type_id","Name":"Name","House_id":"House_id","Region":"Region","Neighborhood":"Neighborhood","State":"State","Phone_Number":"Phone_Number","District":"District","Latitude":"Latitude","Longitude":"Longitude","Iced":"Iced","Visits":"Visits"},"pathToName":{"WiFi":"WiFi","Owner":"Owner","Date_Opened":"Date_Opened","Customers":"Customers","GeoPoint":"GeoPoint","Hot":"Hot","Specialty_Type_id":"Specialty_Type_id","Name":"Name","House_id":"House_id","Region":"Region","Neighborhood":"Neighborhood","State":"State","Phone_Number":"Phone_Number","District":"District","Latitude":"Latitude","Longitude":"Longitude","Iced":"Iced","Visits":"Visits"},"defaultListFile":"tables/Tea_houses/html/Tea_houses_list.html","defaultDetailFile":"tables/Tea_houses/html/Tea_houses_detail.html"},"geotagger":{"pathToKey":{"Location":"Location","Description":"Description","instance_name":"instance_name","Date_and_Time":"Date_and_Time","Image":"Image"},"pathToName":{"Location":"Location","Description":"Description","instance_name":"instance_name","Date_and_Time":"Date and Time","Image":"Image"},"defaultListFile":"tables/geotagger/html/geo_list.html","defaultDetailFile":"tables/geotagger/html/geo_detail.html"},"Tea_houses_editable":{"pathToKey":{"WiFi":"WiFi","Owner":"Owner","Date_Opened":"Date_Opened","Customers":"Customers","GeoPoint":"GeoPoint","Hot":"Hot","Specialty_Type_id":"Specialty_Type_id","Name":"Name","House_id":"House_id","Region":"Region","Neighborhood":"Neighborhood","State":"State","Phone_Number":"Phone_Number","District":"District","Latitude":"Latitude","Longitude":"Longitude","Iced":"Iced","Visits":"Visits"},"pathToName":{"WiFi":"WiFi","Owner":"Owner","Date_Opened":"Date_Opened","Customers":"Customers","GeoPoint":"GeoPoint","Hot":"Hot","Specialty_Type_id":"Specialty_Type_id","Name":"Name","House_id":"House_id","Region":"Region","Neighborhood":"Neighborhood","State":"State","Phone_Number":"Phone_Number","District":"District","Latitude":"Latitude","Longitude":"Longitude","Iced":"Iced","Visits":"Visits"},"defaultListFile":"framework/tables/test/html/inputTests.html"}},"tableIdToDisplayName":{"Milk_bank":"Milk bank","Tea_inventory":"Tea inventory","Tea_types":"Tea types","Myna_birds":"Myna birds","Tea_houses":"Tea houses","geotagger":"Geotagger","Tea_houses_editable":"Tea houses editable"}}